[{"id":"F5830", "addr1":"\ubd80\uc0b0 \uc911\uad6c \uc601\uc8fc\ub3d9 \uc911\uc559\ub300\ub85c 160", "addr2":"\ubd80\uc0b0 \ub3d9\uad6c \ucd08\ub7c9\ub3d9 1211-13", "lat":"35.112128", "lon":"129.038317", "spot":"\uc911\uad6c \uc601\uc8fc\ub3d9 \uc911\uc559\ub300\ub85c 160 \uc601\uc8fc\uad50\ucc28\ub85c", "lmt":"50", "year":"2010", "office":"\ubd80\uc0b0\uc9c0\ubc29\uacbd\ucc30\uccad", "tel":"051-899-2852"},
 {"id":"G0592", "addr1":"\ubd80\uc0b0 \uc911\uad6c \ubd80\ud3c9\ub3d9 \ubcf4\uc218\ub300\ub85c 72", "addr2":"\ubd80\uc0b0 \uc911\uad6c \ubd80\ud3c9\ub3d94\uac00 58-17", "lat":"35.102274", "lon":"129.021426", "spot":"\uc911\uad6c \ubd80\ud3c9\ub3d9 \ubcf4\uc218\ub300\ub85c 72 \ubd80\ud3c9\uad50\ud68c \uc55e", "lmt":"50", "year":"2017", "office":"\ubd80\uc0b0\uc9c0\ubc29\uacbd\ucc30\uccad", "tel":"051-899-2852"},
 {"id":"G1513", "addr1":"\ubd80\uc0b0 \uc911\uad6c \ubcf4\uc218\ub3d91\uac00 \ud751\uad50\ub85c 74", "addr2":"\ubd80\uc0b0 \uc911\uad6c \ubcf4\uc218\ub3d91\uac00 50-1", "lat":"35.106016", "lon":"129.023688", "spot":"\uc911\uad6c \ubcf4\uc218\ub3d91\uac00 \ud751\uad50\ub85c 74 \ubcf4\uc218\ucd08\ub4f1\ud559\uad50", "lmt":"50", "year":"2018", "office":"\ubd80\uc0b0\uc9c0\ubc29\uacbd\ucc30\uccad", "tel":"051-899-2852"},
 {"id":"G1514", "addr1":"\ubd80\uc0b0 \uc911\uad6c \ub300\uccad\ub3d91\uac00 \ub300\uccad\ub85c 120", "addr2":"\ubd80\uc0b0 \uc911\uad6c \ub300\uccad\ub3d91\uac00 43-1", "lat":"35.102795", "lon":"129.032811", "spot":"\uc911\uad6c \ub300\uccad\ub3d91\uac00 \ub300\uccad\ub85c 120 \uadfc\ud604\ub300\uc5ed\uc0ac\ubc15\ubb3c\uad00(\ub0a8\uc131\ucd08\uad50)", "lmt":"50", "year":"2018", "office":"\ubd80\uc0b0\uc9c0\ubc29\uacbd\ucc30\uccad", "tel":"051-899-2852"},
 {"id":"G1944", "addr1":"\ubd80\uc0b0 \uc911\uad6c \ubd80\ud3c9\ub3d9 \ub300\uccad\ub85c 52", "addr2":"\ubd80\uc0b0 \uc911\uad6c \ubd80\ud3c9\ub3d92\uac00 80-7", "lat":"35.102996", "lon":"129.025443", "spot":"\uc911\uad6c \ubd80\ud3c9\ub3d9 \ub300\uccad\ub85c 52 \ubcf4\uc218\uc0ac\uac70\ub9ac", "lmt":"50", "year":"2018", "office":"\ubd80\uc0b0\uc9c0\ubc29\uacbd\ucc30\uccad", "tel":"051-899-2852"},
 {"id":"G4927", "addr1":"\ubd80\uc0b0 \uc911\uad6c \uc601\uc8fc\ub3d9 \uc911\uad6c\ub85c 186", "addr2":"\ubd80\uc0b0 \uc911\uad6c \uc601\uc8fc\ub3d9 551-5", "lat":"35.111219", "lon":"129.034565", "spot":"\uc911\uad6c \uc601\uc8fc\ub3d9 \uc911\uad6c\ub85c 186 \ubd80\uc0b0\ud130\ub110\uc0bc\uac70\ub9ac 100m \uc804(\uc5b4\ub9b0\uc774\ubcf4\ud638\uad6c\uc5ed, \ubd09\ub798\ucd08\uad50)", "lmt":"30", "year":"2020", "office":"\ubd80\uc0b0\uc9c0\ubc29\uacbd\ucc30\uccad", "tel":"051-899-2852"}]